City,Lat,Lng,Max Temp,Humidity,Cloudiness,Wind Speed,Country,Date
Albany,42.6001,-73.9662,70.0,18,87,4.0,US,1619290801
Revda,56.801,59.9303,44.6,39,0,8.95,RU,1619290820
Cidreira,-30.1811,-50.2056,73.62,72,8,12.46,BR,1619290821
Punta Arenas,-53.15,-70.9167,51.8,71,75,16.11,CL,1619290643
Östersund,63.1792,14.6357,33.01,51,61,12.66,SE,1619290821
Vaini,-21.2,-175.2,69.8,100,20,6.44,TO,1619290821
Port Hardy,50.6996,-127.4199,48.2,87,90,3.44,CA,1619290822
Busselton,-33.65,115.3333,52.0,89,0,1.95,AU,1619290822
Dikson,73.5069,80.5464,7.11,95,14,12.24,RU,1619290822
Okhotsk,59.3833,143.3,12.69,72,46,16.42,RU,1619290823
Ushuaia,-54.8,-68.3,55.4,58,75,12.66,AR,1619290823
Geraldton,-28.7667,114.6,59.0,94,91,1.14,AU,1619290823
Hilo,19.7297,-155.09,71.6,83,90,6.91,US,1619290654
Hobart,-42.8794,147.3294,48.99,76,40,10.36,AU,1619290775
Nsanje,-16.92,35.262,72.59,76,8,3.71,MW,1619290824
Yellowknife,62.456,-114.3525,19.0,57,75,12.66,CA,1619290810
Usinsk,65.9939,57.5281,38.07,88,99,8.7,RU,1619290824
Barrow,71.2906,-156.7887,21.2,93,1,3.44,US,1619290824
Castro,-24.7911,-50.0119,72.99,53,65,5.08,BR,1619290825
Chokurdakh,70.6333,147.9167,-13.83,97,5,4.36,RU,1619290825
São Filipe,14.8961,-24.4956,72.23,74,55,13.67,CV,1619290825
Mataura,-46.1927,168.8643,48.0,88,86,4.0,NZ,1619290825
Tongren,27.7172,109.1853,57.31,91,100,7.25,CN,1619290826
Ampanihy,-24.7,44.75,72.07,69,5,6.17,MG,1619290826
Cape Town,-33.9258,18.4232,63.0,82,0,11.5,ZA,1619290780
Gubkinskiy,64.434,76.5026,33.71,97,100,5.79,RU,1619290826
Bonavista,48.6499,-53.1147,50.0,53,83,11.5,CA,1619290827
Mehamn,71.0357,27.8492,32.7,72,100,9.04,NO,1619290827
Butaritari,3.0707,172.7902,82.47,76,52,12.12,KI,1619290827
Saint-Philippe,-21.3585,55.7679,77.0,88,75,27.63,RE,1619290828
Campoverde,-8.4753,-74.8058,87.8,62,75,6.91,PE,1619290828
Santa Cruz,30.4202,-9.5982,69.8,46,20,16.11,MA,1619290828
Half Moon Bay,37.4636,-122.4286,64.0,71,75,10.36,US,1619290829
Airai,-8.9266,125.4092,57.27,92,51,2.75,TL,1619290829
Hermanus,-34.4187,19.2345,62.01,81,100,1.99,ZA,1619290829
Katangli,51.7102,143.2326,21.94,86,6,7.54,RU,1619290829
Lagoa,39.05,-27.9833,58.86,83,35,26.91,PT,1619290830
Iqaluit,63.7506,-68.5145,35.6,75,75,4.61,CA,1619290830
Aasiaat,68.7098,-52.8699,34.29,79,16,11.56,GL,1619290830
New Norfolk,-42.7826,147.0587,48.99,86,100,2.48,AU,1619290831
Severo-Kuril'sk,50.6789,156.125,34.84,96,100,4.54,RU,1619290831
Wajima,37.4,136.9,53.55,78,100,6.11,JP,1619290831
Alice Springs,-23.7,133.8833,48.2,71,0,5.75,AU,1619290737
Eyrarbakki,63.863,-21.1481,46.4,76,90,13.8,IS,1619290832
Avarua,-21.2078,-159.775,80.6,74,20,13.8,CK,1619290832
Bambous Virieux,-20.3428,57.7575,79.0,83,75,17.27,MU,1619290832
Kawalu,-7.3817,108.2082,70.47,96,100,1.36,ID,1619290832
Port Elizabeth,-33.918,25.5701,59.0,94,0,6.91,ZA,1619290797
Berlevåg,70.8578,29.0864,33.93,70,99,14.03,NO,1619290833
Mahébourg,-20.4081,57.7,78.8,83,75,17.27,MU,1619290833
Kapaa,22.0752,-159.319,75.99,73,40,16.11,US,1619290833
Aykhal,66.0,111.5,20.03,96,100,6.24,RU,1619290834
Japura,-0.3167,102.35,73.47,98,89,1.5,ID,1619290834
Tuktoyaktuk,69.4541,-133.0374,23.0,80,40,6.91,CA,1619290834
Henties Bay,-22.116,14.2845,65.5,80,0,5.23,NA,1619290835
Ponta Porã,-22.5361,-55.7256,80.6,50,0,11.5,BR,1619290835
Bluff,-46.6,168.3333,48.0,86,100,5.01,NZ,1619290800
Grants Pass,42.439,-123.3284,57.0,58,90,9.22,US,1619290835
Sulangan,11.1373,123.7228,81.1,78,100,6.76,PH,1619290836
Lata,40.1629,-8.3327,64.99,88,78,4.38,PT,1619290836
Agadez,19.75,10.25,91.44,9,2,7.36,NE,1619290836
Dogondoutchi,13.6393,4.0287,95.31,9,100,5.5,NE,1619290836
East London,-33.0153,27.9116,64.4,88,0,5.75,ZA,1619290837
Vao,-22.6667,167.4833,75.97,68,100,13.02,NC,1619290837
Port Alfred,-33.5906,26.891,67.14,85,53,8.88,ZA,1619290837
Ancud,-41.8697,-73.8203,62.01,72,75,11.5,CL,1619290838
Manicoré,-5.8092,-61.3003,85.6,72,98,3.76,BR,1619290838
Asău,46.4333,26.4,46.0,48,50,3.56,RO,1619290838
Hithadhoo,-0.6,73.0833,83.25,69,13,7.29,MV,1619290839
Carnarvon,-24.8667,113.6333,62.6,94,0,6.91,AU,1619290839
Marsabit,2.3284,37.9899,69.13,71,100,10.96,KE,1619290839
Doka,13.5167,35.7667,91.17,22,13,8.25,SD,1619290840
Daru,-9.0763,143.2092,77.2,91,100,7.34,PG,1619290840
Kaitangata,-46.2817,169.8464,44.01,88,23,3.0,NZ,1619290840
Nicoya,10.1483,-85.452,91.4,43,20,8.05,CR,1619290840
Saskylakh,71.9167,114.0833,31.57,92,96,12.03,RU,1619290841
Lebu,-37.6167,-73.65,57.58,69,0,17.43,CL,1619290841
Griffith,41.5284,-87.4237,54.0,87,90,1.32,US,1619290841
Nikolskoye,59.7035,30.7861,39.2,70,20,4.47,RU,1619290841
Namatanai,-3.6667,152.4333,78.49,81,36,4.07,PG,1619290842
Haines Junction,60.7522,-137.5108,42.8,39,15,2.3,CA,1619290842
Araouane,18.9048,-3.5265,93.78,10,58,5.23,ML,1619290842
Port Shepstone,-30.7414,30.455,68.58,85,15,9.48,ZA,1619290843
Bumbuna,9.05,-11.7333,83.61,61,74,2.46,SL,1619290843
Tūkrah,32.5341,20.5791,61.48,90,43,13.56,LY,1619290843
Pevek,69.7008,170.3133,19.22,86,100,2.77,RU,1619290843
Poltavka,54.3663,71.7632,44.64,42,100,12.57,RU,1619290844
Pochinki,54.6988,44.8668,40.01,86,100,15.64,RU,1619290844
Faya,18.3851,42.4509,59.0,72,75,16.11,SA,1619290844
Verāval,20.9,70.3667,80.98,80,100,12.95,IN,1619290845
Praia,14.9215,-23.5087,75.2,57,75,19.57,CV,1619290845
Umluj,25.0213,37.2685,83.07,50,0,5.55,SA,1619290845
Longyearbyen,78.2186,15.6401,26.6,63,75,3.44,SJ,1619290846
Rikitea,-23.1203,-134.9692,78.58,72,100,16.37,PF,1619290831
Uvinza,-5.1036,30.3911,68.49,90,96,2.33,TZ,1619290846
Torbay,47.6666,-52.7314,53.6,35,40,25.32,CA,1619290846
Matara,5.9485,80.5353,77.85,88,96,3.83,LK,1619290847
Katsuura,35.1333,140.3,60.8,63,20,10.36,JP,1619290847
Cabo San Lucas,22.8909,-109.9124,84.2,41,1,11.5,MX,1619290766
Bredasdorp,-34.5322,20.0403,53.6,87,96,5.75,ZA,1619290847
Thompson,55.7435,-97.8558,24.8,50,75,2.3,CA,1619290848
Faanui,-16.4833,-151.75,80.44,73,100,9.69,PF,1619290848
Ahipara,-35.1667,173.1667,58.42,80,27,8.41,NZ,1619290848
Khovd,48.0056,91.6419,26.13,21,16,15.86,MN,1619290841
Perelyub,51.8667,50.3667,49.62,87,88,11.12,RU,1619290849
Sur,22.5667,59.5289,86.83,39,1,11.95,OM,1619290849
Chui,-33.6971,-53.4616,71.38,72,100,6.38,UY,1619290849
Puerto Ayora,-0.7393,-90.3518,80.6,74,75,16.11,EC,1619290850
Mackenzie,55.2999,-123.1698,37.4,41,1,6.91,CA,1619290850
Poum,-20.2333,164.0167,78.35,81,100,15.23,NC,1619290850
Necochea,-38.5473,-58.7368,64.0,70,85,11.01,AR,1619290850
Bull Savanna,17.8868,-77.5902,82.69,61,16,16.91,JM,1619290851
Tongliao,43.6125,122.2653,40.1,43,18,5.23,CN,1619290851
Weirton,40.419,-80.5895,60.01,41,1,10.36,US,1619290851
Morondava,-20.2833,44.2833,78.76,78,0,12.06,MG,1619290851
Clyde River,70.4692,-68.5914,17.6,93,75,9.22,CA,1619290852
Narsaq,60.9167,-46.05,55.4,33,75,25.32,GL,1619290840
Talnakh,69.4865,88.3972,30.42,97,100,13.71,RU,1619290852
Sanāwad,22.1833,76.0667,82.4,11,40,9.22,IN,1619290852
Nyurba,63.2842,118.3319,30.36,92,100,2.71,RU,1619290853
Kavaratti,10.5669,72.642,84.06,75,22,7.63,IN,1619290853
Tirlyanskiy,54.2109,58.5806,37.08,98,100,4.56,RU,1619290854
Prince Albert,53.2001,-105.7677,32.0,40,75,2.3,CA,1619290854
Vanimo,-2.6741,141.3028,76.82,87,100,4.41,PG,1619290854
Yerbogachën,61.2767,108.0108,29.05,96,100,1.5,RU,1619290854
Fallon,39.4735,-118.7774,62.6,20,75,8.05,US,1619290855
Ribeira Grande,38.5167,-28.7,60.8,67,75,20.71,PT,1619290829
Yulara,-25.2406,130.9889,53.6,58,8,6.91,AU,1619290855
Upernavik,72.7868,-56.1549,34.2,85,11,5.91,GL,1619290855
Santa Cruz de la Sierra,-17.8,-63.1667,68.0,94,90,2.3,BO,1619290800
Khatanga,71.9667,102.5,32.18,97,100,16.82,RU,1619290856
Yangi Marg`ilon,40.4272,71.7189,64.4,42,95,4.61,UZ,1619290856
Saint George,37.1041,-113.5841,79.0,18,100,1.01,US,1619290788
Assiut,27.181,31.1837,80.6,34,0,11.5,EG,1619290856
Egvekinot,66.3167,-179.1667,21.99,91,80,1.07,RU,1619290857
Puerto Baquerizo Moreno,-0.9,-89.6,84.2,70,40,12.66,EC,1619290857
Dunedin,-45.8742,170.5036,48.0,82,100,7.0,NZ,1619290806
Kattivākkam,13.2167,80.3167,84.2,79,40,4.61,IN,1619290857
Jamestown,42.097,-79.2353,63.0,30,1,13.8,US,1619290858
Marystown,47.1666,-55.1483,40.98,82,94,18.21,CA,1619290858
Togur,58.3631,82.8265,28.71,93,88,3.13,RU,1619290858
Otjiwarongo,-20.4637,16.6477,66.6,31,49,8.63,NA,1619290859
Ilulissat,69.2167,-51.1,41.0,60,40,6.91,GL,1619290859
Mar del Plata,-38.0023,-57.5575,66.2,59,40,14.97,AR,1619290607
Vila Franca do Campo,37.7167,-25.4333,59.0,82,40,16.11,PT,1619290859
Havre-St-Pierre,50.2334,-63.5986,44.6,70,20,24.16,CA,1619290860
Santiago,-33.4569,-70.6483,69.8,37,0,4.61,CL,1619290635
Hong Kong,22.2855,114.1577,77.0,87,74,7.4,HK,1619290635
Dwārka,22.2394,68.9678,81.72,78,9,13.98,IN,1619290860
Oistins,13.0667,-59.5333,84.2,58,40,19.57,BB,1619290860
Banjar,-8.19,114.9675,78.8,89,20,5.75,ID,1619290861
Ponta do Sol,32.6667,-17.1,66.2,59,20,4.61,PT,1619290861
Dunbar,38.3606,-81.7374,57.99,58,90,8.05,US,1619290861
Yei,4.095,30.6779,69.01,95,100,8.25,SS,1619290862
Fortuna,40.5982,-124.1573,54.0,87,75,10.36,US,1619290857
Lompoc,34.6391,-120.4579,57.99,67,69,6.91,US,1619290862
George Town,5.4112,100.3354,82.0,89,40,3.44,MY,1619290862
Baykit,61.67,96.37,32.47,96,100,2.55,RU,1619290863
Deputatsky,69.3,139.9,7.32,85,100,3.4,RU,1619290863
Tondano,1.3038,124.9112,75.2,94,20,1.28,ID,1619290863
Hervey Bay,-25.2986,152.8535,60.01,86,0,1.01,AU,1619290864
Vengerovo,55.6848,76.7471,40.1,55,100,5.99,RU,1619290864
Tazovsky,67.4667,78.7,31.03,92,100,7.76,RU,1619290864
Vryheid,-27.7695,30.7917,52.95,72,10,1.74,ZA,1619290865
Bogo,11.0517,124.0055,78.28,83,100,4.36,PH,1619290865
Inverness,57.4791,-4.224,50.0,76,20,9.22,GB,1619290865
Masindi,1.6744,31.715,64.76,93,78,0.78,UG,1619290865
Gorontalo,0.5412,123.0595,74.1,90,30,2.39,ID,1619290866
La Ronge,55.1001,-105.2842,26.6,46,100,5.75,CA,1619290866
Ikovka,55.6089,64.9375,43.34,47,100,11.9,RU,1619290867
Hambantota,6.1241,81.1185,77.0,100,20,2.3,LK,1619290867
Orlik,52.5178,99.825,22.6,91,100,1.1,RU,1619290867
Guerrero Negro,27.9769,-114.0611,67.15,57,3,15.05,MX,1619290868
Storm Lake,42.6411,-95.2097,51.8,40,1,19.57,US,1619290868
Zonguldak,41.25,31.8333,46.15,96,100,3.29,TR,1619290868
Arraial do Cabo,-22.9661,-42.0278,78.8,73,20,12.66,BR,1619290840
Paris,48.8534,2.3488,62.01,39,0,13.8,FR,1619290861
Tiksi,71.6872,128.8694,30.45,93,100,11.12,RU,1619290869
Kiama,-34.6833,150.8667,52.0,78,0,1.99,AU,1619290869
Solnechnyy,50.7214,136.6319,26.6,77,96,7.78,RU,1619290869
The Valley,18.217,-63.0578,86.0,65,40,13.8,AI,1619290870
Kindersley,51.4668,-109.1682,39.2,26,40,10.36,CA,1619290781
Port Macquarie,-31.4333,152.9167,53.01,90,0,3.0,AU,1619290870
Baturaja,-4.1333,104.1667,73.02,91,100,2.46,ID,1619290870
Rio Claro,-22.4114,-47.5614,84.2,32,0,8.05,BR,1619290871
Djambala,-2.5447,14.7533,68.9,87,99,1.43,CG,1619290871
Lobito,-12.3481,13.5456,81.41,85,100,1.97,AO,1619290871
Bismarck,46.8083,-100.7837,48.2,29,20,11.5,US,1619290818
Buala,-8.145,159.5921,79.41,82,76,2.8,SB,1619290872
Denizli Province,37.8402,29.0698,60.8,51,75,9.22,TR,1619290872
Paraná,-31.732,-60.5238,75.99,61,56,5.99,AR,1619290742
Kouango,4.9934,19.9619,74.01,86,30,5.21,CF,1619290872
Nūh,28.1167,77.0167,78.8,27,0,3.44,IN,1619290873
Pangnirtung,66.1451,-65.7125,33.8,75,1,11.5,CA,1619290873
Pacific Grove,36.6177,-121.9166,60.8,55,40,6.91,US,1619290873
Ola,59.5833,151.2833,15.64,67,100,15.19,RU,1619290874
Luanda,-8.8368,13.2343,78.8,89,40,4.61,AO,1619290809
Sibay,52.7181,58.6658,41.67,86,100,3.15,RU,1619290874
Nuuk,64.1835,-51.7216,41.0,65,20,6.91,GL,1619290874
Tehachapi,35.1322,-118.449,61.0,47,67,8.01,US,1619290875
Rocha,-34.4833,-54.3333,65.89,90,100,7.29,UY,1619290875
Hattem,52.475,6.0639,45.0,65,12,9.73,NL,1619290875
Canchungo,12.0672,-16.0333,87.8,58,0,9.22,GW,1619290876
Lakatoro,-16.0999,167.4164,80.19,83,73,10.8,VU,1619290876
Lavrentiya,65.5833,-171.0,28.24,88,93,1.28,RU,1619290876
Kilifi,-3.6305,39.8499,82.4,89,75,6.91,KE,1619290877
Newport,51.5877,-2.9984,59.0,44,0,14.97,GB,1619290622
Makakilo City,21.3469,-158.0858,78.8,69,1,6.91,US,1619290877
Galle,6.0367,80.217,80.38,81,100,3.56,LK,1619290877
Klyuchi,52.2667,79.1667,39.87,43,0,2.35,RU,1619290878
Grand Gaube,-20.0064,57.6608,79.0,82,100,10.0,MU,1619290878
Caramay,10.1815,119.236,77.14,85,100,3.33,PH,1619290878
Esperance,-33.8667,121.9,59.0,72,44,14.97,AU,1619290879
Coyhaique,-45.5752,-72.0662,55.4,67,75,3.44,CL,1619290870
Kuminskiy,58.6667,66.5667,42.62,59,100,5.93,RU,1619290879
Turukhansk,65.8167,87.9833,31.82,99,100,5.23,RU,1619290879
Taloqan,36.7361,69.5345,61.39,36,19,3.89,AF,1619290880
Westport,41.1415,-73.3579,69.01,30,1,16.11,US,1619290880
Bethel,41.3712,-73.414,70.0,23,1,8.05,US,1619290880
Dourbali,11.8091,15.8632,85.19,46,99,14.05,TD,1619290880
Shingū,33.7333,135.9833,53.28,88,5,4.65,JP,1619290881
Mayo,38.8876,-76.5119,64.0,48,1,10.36,US,1619290881
Amalāpuram,16.5833,82.0167,79.21,86,0,1.19,IN,1619290881
Byron Bay,-28.65,153.6167,53.01,100,100,5.46,AU,1619290591
Teya,60.3778,92.6267,33.01,98,100,1.41,RU,1619290882
Tiznit Province,29.5833,-9.5,60.39,63,3,9.91,MA,1619290882
Kirs,59.3388,52.2447,42.55,93,100,8.37,RU,1619290882
Boende,-0.2167,20.8667,73.06,90,67,3.02,CD,1619290882
Halifax,44.6453,-63.5724,64.0,27,22,13.8,CA,1619290883
Tsimmerbude,54.675,20.1347,37.99,80,40,8.95,RU,1619290883
Maraã,-1.8333,-65.3667,88.93,58,63,5.77,BR,1619290883
Tura,25.5198,90.2201,75.25,35,100,3.51,IN,1619290884
Shimoda,34.6667,138.95,52.0,82,16,5.01,JP,1619290884
Fairbanks,64.8378,-147.7164,48.2,42,1,4.61,US,1619290645
San Cristobal,7.7669,-72.225,89.6,55,40,13.8,VE,1619290884
Jizan,17.3333,42.6667,87.8,40,20,23.02,SA,1619290885
Xinyang,32.1228,114.0656,54.95,94,100,10.69,CN,1619290885
Cherskiy,68.75,161.3,17.47,95,95,10.33,RU,1619290886
Bilibino,68.0546,166.4372,23.54,95,100,1.32,RU,1619290886
Opuwo,-18.0607,13.84,73.15,39,81,3.27,NA,1619290886
Andenes,69.3143,16.1194,35.01,69,20,11.5,NO,1619290886
Pisco,-13.7,-76.2167,70.0,78,0,10.36,PE,1619290887
Mayumba,-3.432,10.6554,79.5,85,100,5.03,GA,1619290887
Atuona,-9.8,-139.0333,80.74,72,0,20.49,PF,1619290876
Pedasí,7.5333,-80.0333,84.43,64,96,11.48,PA,1619290888
East Haddam,41.4532,-72.4612,71.01,21,1,13.8,US,1619290888
Vila Velha,-20.3297,-40.2925,82.0,65,20,11.5,BR,1619290888
Majene,-3.5403,118.9707,77.41,85,81,3.47,ID,1619290888
Horqueta,-23.3428,-57.0597,83.12,49,100,5.21,PY,1619290889
Guarapari,-20.6667,-40.4975,82.0,65,20,11.5,BR,1619290889
Laas,46.6166,10.7002,66.2,43,0,3.44,IT,1619290889
Bengkulu,-3.8004,102.2655,75.4,89,100,4.03,ID,1619290890
Kalabo,-14.97,22.6814,71.69,45,51,6.55,ZM,1619290890
Severobaykal'sk,55.65,109.3167,34.59,76,100,4.68,RU,1619290890
Nanortalik,60.1432,-45.2371,41.86,74,100,8.1,GL,1619290890
Fernie,49.5,-115.0687,33.8,86,100,4.61,CA,1619290628
Kashgar,39.4547,75.9797,68.0,7,98,15.66,CN,1619290891
Collie,-33.3667,116.15,52.0,89,0,1.25,AU,1619290891
Puri,19.8,85.85,82.4,83,20,5.75,IN,1619290891
Khuzhir,53.1939,107.3397,33.44,78,100,6.2,RU,1619290892
Sijunjung,-0.6876,100.9537,72.14,97,100,1.97,ID,1619290892
Leningradskiy,69.3833,178.4167,22.5,91,100,5.12,RU,1619290892
Sydney,-33.8679,151.2073,55.4,62,0,9.22,AU,1619290733
West Plains,36.7281,-91.8524,57.2,82,90,11.5,US,1619290892
City of San Pedro,14.35,121.0167,80.6,83,20,3.31,PH,1619290893
Kirkuk,35.4681,44.3922,75.72,14,38,5.88,IQ,1619290893
Chitose,42.8194,141.6522,42.8,93,75,13.8,JP,1619290894
Creel,27.75,-107.6333,70.83,5,0,9.48,MX,1619290894
San Jose,37.3394,-121.895,66.0,49,92,3.4,US,1619290637
Xai-Xai,-25.0519,33.6442,70.09,81,72,8.93,MZ,1619290894
Kruisfontein,-34.0033,24.7314,60.01,92,100,1.99,ZA,1619290895
Cuamba,-14.8031,36.5372,70.27,77,83,2.37,MZ,1619290895
Pouembout,-21.1333,164.9,73.8,91,100,6.55,NC,1619290895
Bathsheba,13.2167,-59.5167,84.2,58,40,19.57,BB,1619290867
Corinth,37.9407,22.9573,55.99,78,67,1.99,GR,1619290896
Chicama,-7.8447,-79.1469,66.2,82,75,13.8,PE,1619290896
Tuatapere,-46.1333,167.6833,48.0,88,100,4.0,NZ,1619290897
Warrington,53.3925,-2.5802,62.6,42,15,12.66,GB,1619290897
Mount Gambier,-37.8333,140.7667,50.0,100,75,5.75,AU,1619290897
Kieta,-6.2167,155.6333,78.64,82,52,0.56,PG,1619290897
Qaanaaq,77.484,-69.3632,27.73,69,93,6.49,GL,1619290898
La Paz,-16.5,-68.15,59.0,36,20,20.71,BO,1619290686
Mettupalayam,11.3,76.95,80.6,83,40,2.3,IN,1619290898
Rockhampton,-23.3833,150.5,68.0,77,77,6.91,AU,1619290814
Erenhot,43.6475,111.9767,55.06,39,100,15.57,CN,1619290899
Manga,11.6636,-1.0731,98.15,18,100,3.31,BF,1619290899
Batangafo,7.3008,18.2833,75.09,70,100,4.0,CF,1619290899
Ifanadiana,-21.3,47.6333,66.04,99,81,1.05,MG,1619290900
Ambon City,-3.6954,128.1814,77.0,94,40,5.75,ID,1619290900
Atar,20.5169,-13.0499,92.48,10,0,12.3,MR,1619290900
Hailar,49.2,119.7,39.4,28,100,3.94,CN,1619290900
Moba,33.2288,105.0179,46.09,82,100,2.82,CN,1619290901
Mossamedes,-15.1961,12.1522,79.23,75,0,7.92,AO,1619290901
Norman Wells,65.282,-126.8329,33.8,47,75,5.75,CA,1619290901
Zhigansk,66.7697,123.3711,33.03,98,100,9.71,RU,1619290902
Arlit,18.7369,7.3853,92.71,7,4,5.28,NE,1619290902
Mahon,39.8885,4.2658,59.0,72,0,5.75,ES,1619290902
Flinders,-34.5833,150.8552,52.0,80,0,1.01,AU,1619290902
Amazar,53.858,120.875,31.84,64,92,1.19,RU,1619290903
Rawson,-43.3002,-65.1023,60.51,45,14,0.74,AR,1619290903
Coquimbo,-29.9533,-71.3436,64.4,68,0,13.8,CL,1619290903
Tuy Hoa,13.0833,109.3,78.08,84,11,2.82,VN,1619290904
Hasaki,35.7333,140.8333,50.0,93,20,4.61,JP,1619290904
Oskemen,49.9565,82.6119,23.0,54,1,2.24,KZ,1619290904
Abu Samrah,35.3029,37.1841,74.19,40,96,9.31,SY,1619290904
Sambava,-14.2667,50.1667,76.06,87,28,10.31,MG,1619290905
Moree,-29.4667,149.85,44.6,76,0,3.44,AU,1619290905
Qandala,11.472,49.8728,86.0,64,76,6.13,SO,1619290905
Provideniya,64.3833,-173.3,35.51,83,99,0.92,RU,1619290906
Zapolyarnyy,69.4154,30.8136,32.0,100,90,13.8,RU,1619290906
Kuningan,-6.9758,108.4831,68.2,94,88,4.56,ID,1619290906
Ayorou,14.7308,0.9174,95.95,5,5,9.1,NE,1619290906
Sistranda,63.7256,8.834,37.4,75,20,13.8,NO,1619290907
Huilong,31.8111,121.655,64.99,94,100,6.8,CN,1619290907
Bushehr,28.9684,50.8385,77.0,73,26,4.61,IR,1619290907
Balkhash,46.844,74.9804,44.51,43,100,14.23,KZ,1619290908
Dodola,6.9833,39.1833,56.21,86,98,4.25,ET,1619290908
Bacolod City,10.6667,122.95,77.97,87,100,7.07,PH,1619290908
Mafeteng,-29.823,27.2374,49.95,18,11,2.37,LS,1619290909
Harper,4.375,-7.7169,82.33,78,92,10.07,LR,1619290909
Sioux Lookout,50.1001,-91.917,33.8,40,75,9.22,CA,1619290909
Pochutla,15.7432,-96.4661,91.0,51,40,17.27,MX,1619290909
Sobolevo,54.4299,31.8996,35.01,77,95,10.49,RU,1619290910
Shakawe,-18.3667,21.85,72.12,33,95,2.06,BW,1619290910
Mizque,-17.941,-65.3402,72.28,52,77,10.96,BO,1619290911
Tisul',55.7611,88.3122,34.25,96,100,4.94,RU,1619290911
Marawi,7.9986,124.2928,75.99,90,91,5.99,PH,1619290911
Innisfail,-17.5333,146.0333,73.9,95,100,6.85,AU,1619290768
Whitianga,-36.8333,175.7,52.0,97,6,1.01,NZ,1619290911
Korem,12.5058,39.5228,63.54,42,100,7.47,ET,1619290912
Jungapeo de Juárez,19.45,-100.4833,87.21,17,100,7.83,MX,1619290912
Inhambane,-23.865,35.3833,71.96,79,0,8.16,MZ,1619290912
Nyagan,62.1406,65.3936,42.33,94,100,3.18,RU,1619290913
Raymondville,26.4815,-97.7831,96.8,23,1,10.36,US,1619290913
Găgeşti,46.3333,27.9667,50.18,59,100,7.43,RO,1619290913
Miyako,39.6367,141.9525,51.6,65,100,2.66,JP,1619290913
Havøysund,70.9963,24.6622,30.2,80,75,11.5,NO,1619290914
Mariental,-24.6333,17.9667,72.46,19,0,11.54,NA,1619290914
Grindavik,63.8424,-22.4338,44.6,93,90,23.02,IS,1619290890
Guano,-1.5833,-78.6333,77.0,69,75,3.44,EC,1619290914
Raudeberg,61.9875,5.1352,37.99,72,68,16.75,NO,1619290915
Gonaïves,19.45,-72.6833,87.28,53,32,9.78,HT,1619290915
Rāwah,34.4816,41.9093,83.03,14,69,5.88,IQ,1619290915
Aljezur,37.3191,-8.8033,61.39,87,42,10.87,PT,1619290916
Portland,45.5234,-122.6762,50.0,76,90,3.44,US,1619290338
Independence,39.0911,-94.4155,66.0,63,1,16.11,US,1619290916
Coruripe,-10.1256,-36.1756,82.4,67,18,9.75,BR,1619290916
Dakar,14.6937,-17.4441,71.6,83,20,13.8,SN,1619290917
Hajdúnánás,47.85,21.4333,51.8,50,0,3.44,HU,1619290917
Dingle,10.9995,122.6711,76.06,85,100,1.12,PH,1619290809
Carutapera,-1.195,-46.02,81.97,78,100,5.79,BR,1619290851
Iranduba,-3.2847,-60.1861,84.2,74,40,5.75,BR,1619290918
San Quintín,30.4833,-115.95,64.09,66,15,16.82,MX,1619290738
São João da Barra,-21.6403,-41.0511,86.0,51,40,4.61,BR,1619290918
Baní,18.2833,-70.3333,86.0,89,75,14.23,DO,1619290918
Kukuna,9.4,-12.6667,85.64,50,5,11.68,SL,1619290919
Don Luan,11.5333,106.9167,76.69,90,44,2.66,VN,1619290919
Weinan,34.5036,109.5089,53.6,87,40,8.95,CN,1619290919
Ningbo,29.8782,121.5495,66.99,94,100,2.24,CN,1619290919
Gurupá,-1.405,-51.64,81.9,84,96,3.06,BR,1619290920
Kailua,21.4022,-157.7394,78.8,69,40,12.66,US,1619290920
Srednekolymsk,67.45,153.6833,11.3,95,100,8.63,RU,1619290857
Coahuayana Viejo,18.7333,-103.6833,86.0,30,40,8.23,MX,1619290921
Hamilton,39.1834,-84.5333,53.6,71,90,3.44,US,1619290750
Derzhavīnsk,51.1,66.3167,47.17,42,87,17.58,KZ,1619290921
Kudahuvadhoo,2.6708,72.8944,83.16,66,7,8.1,MV,1619290921
Arrondissement de Saint-Jean-de-Maurienne,45.1667,6.5833,60.01,61,62,1.01,FR,1619290921
Boueni,-12.9025,45.0761,82.4,78,90,3.44,YT,1619290922
Odienné,9.51,-7.5692,82.54,51,98,7.54,CI,1619290922
Ponta Delgada,37.7333,-25.6667,59.0,82,40,16.11,PT,1619290922
Kahului,20.8947,-156.47,71.6,100,40,12.66,US,1619290923
Baker City,44.7749,-117.8344,51.8,54,90,13.8,US,1619290923
Karratha,-20.7377,116.8463,78.82,35,0,8.25,AU,1619290923
Port Augusta,-32.5,137.7667,57.2,88,0,5.75,AU,1619290923
Ciudad Guayana,8.3533,-62.6528,90.0,59,85,4.0,VE,1619290924
Saint Paul Harbor,57.79,-152.4072,42.8,87,90,2.75,US,1619290924
Petropavlovsk-Kamchatskiy,53.0452,158.6483,33.8,100,90,4.47,RU,1619290834
Port Hedland,-20.3167,118.5667,68.0,64,0,9.22,AU,1619290925
Carauari,-4.8828,-66.8958,82.18,87,99,2.21,BR,1619290925
College,64.8569,-147.8028,48.2,42,20,1.03,US,1619290925
Kyren,51.6828,102.1408,31.39,90,100,0.54,RU,1619290889
Somain,50.3596,3.2811,55.4,41,0,11.5,FR,1619290926
Erzin,36.9559,36.2,71.6,46,0,4.61,TR,1619290926
Nukus,42.4531,59.6103,59.0,31,0,2.3,UZ,1619290926
Punta Alta,-38.8759,-62.0736,65.07,48,1,11.99,AR,1619290926
Shiyan,32.6475,110.7781,53.19,93,100,0.89,CN,1619290927
Nelson,-41.2833,173.2833,46.99,85,0,3.0,NZ,1619290927
Yar-Sale,66.8333,70.8333,24.75,96,56,4.34,RU,1619290925
Northam,51.0333,-4.2167,54.0,60,51,4.0,GB,1619290927
Yārāda,17.65,83.2667,82.4,83,40,2.3,IN,1619290928
Bubaque,11.2833,-15.8333,78.37,69,15,22.21,GW,1619290928
Riyadh,24.6877,46.7219,87.8,16,0,10.16,SA,1619290902
Anadyr,64.75,177.4833,32.0,93,75,15.66,RU,1619290928
Turan,16.0678,108.2208,80.6,94,40,1.14,VN,1619290929
Yaan,7.3833,8.5667,81.57,69,95,7.07,NG,1619290929
Taoudenni,22.6783,-3.9836,95.72,9,2,10.65,ML,1619290929
Hitoyoshi,32.2167,130.75,59.0,72,6,2.44,JP,1619290929
Conceição do Araguaia,-8.2578,-49.2647,89.6,58,0,8.05,BR,1619290868
Hualmay,-11.0964,-77.6139,72.39,72,9,10.71,PE,1619290930
Beloha,-25.1667,45.05,75.27,63,13,14.05,MG,1619290930
Kupang,-10.1667,123.5833,75.6,86,8,8.08,ID,1619290930
Vostok,46.4856,135.8833,26.85,44,8,8.48,RU,1619290931
Ternate,0.8,127.4,81.79,78,68,5.14,ID,1619290931
Okoneshnikovo,54.8377,75.0834,41.05,49,100,7.0,RU,1619290931
Cayenne,4.9333,-52.3333,79.0,89,75,6.91,GF,1619290932
Saint-Pierre,-21.3393,55.4781,77.0,88,75,27.63,RE,1619290844
Cowra,-33.8333,148.6833,41.83,86,4,0.98,AU,1619290932
Uribia,11.7139,-72.266,93.49,40,92,19.71,CO,1619290814
Ayan,56.45,138.1667,21.83,77,36,9.82,RU,1619290932
Port Lincoln,-34.7333,135.8667,57.56,71,0,4.03,AU,1619290933
Celestún,20.8667,-90.4,89.74,55,76,8.61,MX,1619290933
Bukama,-9.2,25.85,70.74,92,100,2.66,CD,1619290933
Vicuña,-30.0319,-70.7081,73.0,30,0,3.0,CL,1619290933
Nakhon Phanom,17.3333,104.4167,84.24,54,89,4.83,TH,1619290934
Souillac,-20.5167,57.5167,78.8,83,75,17.27,MU,1619290934
Najrān,17.4924,44.1277,86.0,16,75,11.5,SA,1619290934
Nome,64.5011,-165.4064,34.0,75,20,2.68,US,1619290935
Vestmanna,62.1564,-7.1664,48.2,71,100,6.91,FO,1619290935
Los Llanos de Aridane,28.6585,-17.9182,71.6,56,20,8.05,ES,1619290935
Novoul'yanovsk,54.1496,48.3891,44.6,87,100,6.71,RU,1619290935
Mount Isa,-20.7333,139.5,69.8,30,1,5.75,AU,1619290936
Laguna,38.421,-121.4238,66.99,37,20,10.36,US,1619290936
Veracruz,19.3333,-96.6667,97.0,49,20,6.91,MX,1619290719
Itoman,26.1247,127.6694,68.0,83,20,8.05,JP,1619290937
Hefei,31.8639,117.2808,59.0,88,90,8.95,CN,1619290937
Kumul,42.8,93.45,47.89,23,88,6.69,CN,1619290937
Shihezi,44.3,86.0333,40.82,36,0,5.19,CN,1619290938
Sines Municipality,37.9562,-8.8698,64.99,81,18,8.01,PT,1619290938
Arrondissement de Provins,48.5833,3.1667,60.8,41,0,9.22,FR,1619290938
Decatur,39.8403,-88.9548,55.4,88,90,8.05,US,1619290721
Tucumcari,35.1717,-103.725,73.4,20,1,13.8,US,1619290939
Lorengau,-2.0226,147.2712,81.01,76,92,4.38,PG,1619290939
Eirunepé,-6.6603,-69.8736,88.61,58,98,1.05,BR,1619290939
Kaya,13.0917,-1.0844,98.24,7,30,7.14,BF,1619290940
Dauriya,49.9333,116.8667,40.98,25,100,0.92,RU,1619290940
Klaksvík,62.2266,-6.589,48.2,71,100,6.91,FO,1619290940
Santarém,-2.4431,-54.7083,87.8,70,20,11.5,BR,1619290940
Rincon,32.296,-81.2354,66.0,100,90,11.5,US,1619290941
Antananarivo,-18.9137,47.5361,64.4,88,75,8.05,MG,1619290941
Storebø,60.0948,5.2271,45.0,56,20,14.97,NO,1619290941
Bandarbeyla,9.4942,50.8122,83.55,75,81,8.34,SO,1619290942
Maceió,-9.6658,-35.7353,86.0,66,20,9.22,BR,1619290942
Shenjiamen,29.9576,122.298,61.0,89,99,5.55,CN,1619290942
Okha,53.5739,142.9478,22.39,85,90,9.91,RU,1619290943
Saint-Augustin,51.226,-58.6502,39.24,75,89,11.12,CA,1619290943
Tasiilaq,65.6145,-37.6368,37.4,75,75,1.14,GL,1619290943
Te Anau,-45.4167,167.7167,47.26,93,100,6.6,NZ,1619290944
Crixás,-14.5489,-49.9692,87.17,43,25,1.36,BR,1619290944
Saint-François,46.4154,3.9054,68.0,40,0,9.22,FR,1619290944
Azatavan,39.9832,44.5053,64.4,32,0,16.11,AM,1619290945
Hofn,64.2539,-15.2082,47.26,83,100,6.4,IS,1619290945
Pitimbu,-7.4706,-34.8086,82.4,78,75,11.5,BR,1619290945
Mabaruma,8.2,-59.7833,81.32,77,98,7.81,GY,1619290945
Poyarkovo,49.6,128.6833,34.66,69,8,6.4,RU,1619290946
Havelock,34.8791,-76.9013,66.0,68,75,4.61,US,1619290880
Panórama,40.5878,23.0315,55.99,94,75,6.91,GR,1619290946
Luckenwalde,52.0833,13.1667,46.99,64,44,1.01,DE,1619290946
Morón,-34.6534,-58.6198,75.0,60,40,11.5,AR,1619290947
Kununurra,-15.7667,128.7333,57.2,77,9,5.64,AU,1619290947
Cockburn Town,21.4612,-71.1419,82.4,65,40,13.8,TC,1619290858
Kiryat Gat,31.61,34.7642,68.0,100,4,3.09,IL,1619290860
Naze,28.3667,129.4833,64.09,70,99,19.1,JP,1619290947
Novovyazniki,56.1975,42.1711,36.05,96,100,10.0,RU,1619290948
Kedrovyy,56.1667,91.8167,26.6,93,0,4.47,RU,1619290948
Aswān,24.0934,32.907,88.45,9,0,15.19,EG,1619290840
Xiongyue,40.1774,122.1228,47.97,60,5,14.34,CN,1619290948
Montluçon,46.3333,2.6,57.81,82,10,4.59,FR,1619290948
Saurimo,-9.6608,20.3916,65.41,93,98,2.98,AO,1619290949
Bilma,18.6853,12.9164,93.6,9,3,10.16,NE,1619290949
Woodward,36.4337,-99.3904,69.01,34,1,8.05,US,1619290949
Pando,-34.7167,-55.95,69.01,77,75,12.66,UY,1619290950
Marquette,46.5333,-87.6335,37.0,90,100,11.14,US,1619290950
Biga,40.2281,27.2422,53.6,87,75,16.11,TR,1619290950
Acapulco de Juárez,16.8634,-99.8901,89.6,43,90,9.22,MX,1619290811
Lerwick,60.1545,-1.1494,42.8,75,40,10.36,GB,1619290951
Saldanha,-33.0117,17.9442,64.4,63,100,8.05,ZA,1619290933
Pekan,3.4836,103.3996,78.8,89,20,6.67,MY,1619290951
Anloga,5.7947,0.8973,71.6,94,90,17.27,GH,1619290951
Dīnhāta,26.1333,89.4667,80.02,33,100,6.6,IN,1619290952
Tuymazy,54.6067,53.7097,42.35,93,100,5.14,RU,1619290952
Porto-Novo,6.4965,2.6036,86.0,74,40,13.8,BJ,1619290952
Klatovy,49.3955,13.2951,53.6,47,20,6.91,CZ,1619290953
Zanesville,39.9404,-82.0132,57.99,41,40,6.91,US,1619290953
Flin Flon,54.7682,-101.865,28.4,40,75,5.75,CA,1619290811
Mount Hagen,-5.8581,144.2274,59.31,98,100,1.86,PG,1619290953
Yakima,46.4665,-120.6678,53.01,58,90,4.61,US,1619290954
Poopó,-18.3667,-66.9667,56.82,16,2,24.02,BO,1619290954
Qinnan,33.2531,119.9133,57.33,96,100,7.94,CN,1619290954
Waingapu,-9.6567,120.2641,76.32,85,8,7.43,ID,1619290843
Daye,30.0833,114.95,59.7,94,100,4.25,CN,1619290955
Ngunguru,-35.6167,174.5,54.0,95,21,3.0,NZ,1619290955
Novyy Urgal,51.0736,132.5642,23.68,58,0,3.53,RU,1619290955
Hirara,24.8,125.2833,71.46,78,71,19.37,JP,1619290956
Mandalgovi,45.7625,106.2708,48.13,81,100,4.7,MN,1619290956
Lensk,60.7253,114.9278,25.09,96,100,3.49,RU,1619290956
Fort Nelson,58.8053,-122.7002,41.0,33,40,5.75,CA,1619290850
Constitución,-35.3333,-72.4167,65.1,57,6,16.26,CL,1619290957
Mogadishu,2.0371,45.3438,82.94,76,94,13.53,SO,1619290957
Dano,11.15,-3.0667,98.15,20,17,4.76,BF,1619290957
San Jerónimo,-11.9472,-75.2829,63.01,43,35,2.13,PE,1619290958
Maniitsoq,65.4167,-52.9,39.27,72,3,2.71,GL,1619290958
Kalat,29.0225,66.5916,63.1,25,0,5.3,PK,1619290958
Kuala Terengganu,5.3302,103.1408,75.2,100,40,2.3,MY,1619290959
Mattawa,46.7379,-119.9028,44.01,85,100,1.99,US,1619290959
Envira,-7.3,-70.2167,82.56,84,14,3.29,BR,1619290959
Carlos Chagas,-17.7031,-40.7664,83.32,55,36,5.23,BR,1619290959
Cap Malheureux,-19.9842,57.6142,79.0,82,100,10.0,MU,1619290960
Dongzhen,22.3797,110.9389,77.34,82,99,1.79,CN,1619290960
Mendoza,-32.8908,-68.8272,68.0,52,75,8.05,AR,1619290960
Rūdbār,30.15,62.6,77.79,9,3,8.63,AF,1619290961
Virginia Beach,36.8529,-75.978,68.0,42,90,12.66,US,1619290905
La Santisima Trinidad,-14.8333,-64.9,78.8,89,75,6.91,BO,1619290961
Ostrovnoy,68.0531,39.5131,36.19,99,100,4.54,RU,1619290962
Gao,16.6362,1.637,92.68,5,1,8.55,ML,1619290962
Whitehorse,60.7161,-135.0538,46.0,38,20,8.05,CA,1619290962
Jilib,0.4883,42.7854,79.65,76,10,6.55,SO,1619290962
Russell,32.3502,-85.1999,75.99,73,1,9.22,US,1619290811
Longyan,25.1072,117.0225,66.79,89,100,3.8,CN,1619290963
Bolu Province,40.6667,31.5833,49.51,94,100,5.41,TR,1619290963
Atasū,48.6814,71.6433,41.95,28,84,11.36,KZ,1619290964
Den Helder,52.9599,4.7593,46.4,71,75,13.8,NL,1619290964
Udachny,66.4167,112.4,17.56,97,100,4.16,RU,1619290964
Misratah,32.3754,15.0925,63.05,73,60,16.44,LY,1619290964
Makkah al Mukarramah,21.4267,39.8261,88.09,30,97,2.66,SA,1619290965
Quatre Cocos,-20.2078,57.7625,79.0,83,75,17.27,MU,1619290925
Tchibanga,-2.85,11.0333,73.92,93,100,2.01,GA,1619290965
Cametá,-2.2444,-49.4958,84.81,66,47,4.12,BR,1619290966
Tambo,-14.8,-73.9167,48.9,29,0,14.07,PE,1619290966
Litovko,49.2361,135.1742,33.1,55,7,9.35,RU,1619290966
Mackay,-21.15,149.2,68.0,100,90,4.61,AU,1619290966
Ous,60.9058,61.5186,42.75,82,100,7.23,RU,1619290967
Prince George,53.9166,-122.753,50.0,29,1,18.41,CA,1619290800
Malanje,-9.5402,16.341,64.53,96,93,3.56,AO,1619290967
Gaogou,34.0175,119.1886,56.19,95,100,8.32,CN,1619290967
Adrar,20.5022,-10.0711,90.64,11,6,10.71,MR,1619290937
Garoowe,8.4054,48.4845,80.85,66,38,14.99,SO,1619290968
Sovetskiy,61.3614,63.5842,43.18,94,100,2.95,RU,1619290968
Tarauacá,-8.1614,-70.7656,80.04,91,60,3.0,BR,1619290968
Ponnāni,10.767,75.9252,84.2,74,75,7.02,IN,1619290969
Ada,43.4166,-116.1262,53.6,62,75,3.44,US,1619290969
Hemsedal,60.8629,8.5534,19.38,79,53,6.55,NO,1619290969
Mananara,-16.1667,49.7667,73.87,93,98,5.68,MG,1619290970
Samarai,-10.6167,150.6667,82.4,78,88,14.32,PG,1619290970
Presidencia Roque Sáenz Peña,-26.7852,-60.4388,68.94,93,97,7.23,AR,1619290970
Kasongo-Lunda,-6.4667,16.8167,69.78,95,85,0.85,CD,1619290933
Colares,38.7992,-9.4469,66.0,88,20,9.22,PT,1619290971
Pandan,14.0453,124.1694,77.7,82,58,4.21,PH,1619290971
Jutaí,-5.1833,-68.9,89.44,57,23,2.73,BR,1619290971
Nakatsugawa,35.4833,137.5,46.0,97,74,2.66,JP,1619290971
Koungou,-12.7336,45.2042,82.4,78,90,3.44,YT,1619290972
Meulaboh,4.1363,96.1285,75.88,85,100,2.82,ID,1619290972
Grøa,62.65,8.7167,35.6,87,40,4.61,NO,1619290972
Emerald,-23.5333,148.1667,62.6,48,40,10.36,AU,1619290875
Cabedelo,-6.9811,-34.8339,82.4,78,75,11.5,BR,1619290973
Dhidhdhoo,6.8833,73.1,83.5,72,16,3.65,MV,1619290883
Luwingu,-10.2621,29.9271,65.73,77,98,4.32,ZM,1619290973
Kynšperk nad Ohří,50.1189,12.5303,42.8,61,0,5.75,CZ,1619290973
Praia da Vitória,38.7333,-27.0667,62.6,77,75,28.41,PT,1619290973
Piossasco,44.9905,7.4637,66.2,42,0,2.3,IT,1619290974
Saint-Joseph,-21.3667,55.6167,77.0,88,75,27.63,RE,1619290974
Tsiroanomandidy,-18.7667,46.0333,68.29,79,88,3.22,MG,1619290975
Lüderitz,-26.6481,15.1594,62.08,85,7,5.28,NA,1619290975
Marrakesh,31.6315,-8.0083,69.8,52,75,14.97,MA,1619290823
Chumikan,54.7183,135.315,22.87,76,20,9.55,RU,1619290975
Kirakira,-10.4544,161.9205,78.84,82,100,2.75,SB,1619290975
Burnie,-41.0667,145.9167,46.0,91,38,3.0,AU,1619290976
Ginir,7.1333,40.7,59.0,88,82,4.36,ET,1619290976
Muros,42.7762,-9.0603,64.0,70,97,10.0,ES,1619290977
Mana,5.6592,-53.7767,78.49,87,100,11.65,GF,1619290977
Ixtapa,20.7,-105.2,82.4,57,75,9.22,MX,1619290810
Kenai,60.5544,-151.2583,44.01,70,1,4.61,US,1619290977
Suntar,62.1444,117.6319,34.34,86,100,4.45,RU,1619290977
Yuxia,34.0615,108.6291,53.6,87,40,8.95,CN,1619290978
Eureka,40.8021,-124.1637,53.01,84,100,7.0,US,1619290807
North Bend,43.4065,-124.2243,55.99,71,90,6.91,US,1619290842
Stabat,3.761,98.4513,77.0,100,40,2.3,ID,1619290978
Lucé,48.4369,1.4636,62.6,39,95,10.36,FR,1619290979
